SYSTEM_TIME_time_unix_usec,SYSTEM_TIME_millis,IMU1_ax,IMU1_ay,IMU1_az,IMU1_gx,IMU1_gy,IMU1_gz,IMU1_mx,IMU1_my,IMU1_mz,IMU2_ax,IMU2_ay,IMU2_az,IMU2_gx,IMU2_gy,IMU2_gz,IMU2_mx,IMU2_my,IMU2_mz,ATTITUDE_roll_rate,ATTITUDE_pitch_rate,ATTITUDE_yaw_rate,ATTITUDE_roll,ATTITUDE_pitch,ATTITUDE_yaw,INS_x,INS_y,INS_z,INS_vx,INS_vy,INS_vz,GPS_lat,GPS_lon,GPS_alt,GPS_relative_alt,GPS_vx,GPS_vy,GPS_vz,GPS_hdg,GPS_RAW_INT_speed,GPS_RAW_INT_latitude,GPS_RAW_INT_longitude,GPS_RAW_INT_altitude,GPS_RAW_INT_course,GPS_RAW_INT_hdop,GPS_RAW_INT_vdop,GPS_RAW_INT_fix,GPS_RAW_INT_sat_view,VFR_HUD_airspeed,VFR_HUD_groundspeed,VFR_HUD_heading,VFR_HUD_throttle,VFR_HUD_barometer,VFR_HUD_climb,SCALED_PRESSURE_press_abs,SCALED_PRESSURE_press_diff,SCALED_PRESSURE_temp,NAV_CTRL_OUT_desired_roll,NAV_CTRL_OUT_desired_pitch,NAV_CTRL_OUT_desired_heading,NAV_CTRL_OUT_target_bearing,NAV_CTRL_OUT_wp_dist,NAV_CTRL_OUT_alt_error,NAV_CTRL_OUT_aspd_error,NAV_CTRL_OUT_xtrack_error,GPS_STATUS_satellite_snr
2016-11-06 19:01:57.960000,1478466117960000,191,-67,-945,-2,1,4,147,151,-339,244,0,-968,-2,1,4,147,151,-339,-0.12336923800651073,0.0383749242638274,0.07593691594418445,0.09445897491065743,14.209494813443262,-89.93547770738905,0.04381687194108963,0.037818022072315216,0.02606671303510666,0.028421960771083832,0.036180831491947174,0.1243228167295456,-226071010,-434066882,10340,-30,0,0,0,27007,0,-226071013,-434066885,10380,0,121,200,3,10,0.026995552703738213,0.0,270,38,10.319999694824219,0.1700219362974167,1012.007568359375,0.008593750186264515,2992,0.0,4.0,-89,-89,0,50.04999923706055,1597.3004150390625,0.0,
2016-11-06 19:01:58.460000,1478466118460000,648,79,-826,-9,2,33,148,151,-339,700,7,-850,-8,2,33,148,151,-339,-0.4765881353644228,0.07880157332130316,1.4997223518628595,0.030643353561624613,14.222765017226951,-89.58095673851955,0.03629123046994209,-0.2692270874977112,0.09552767872810364,-0.008289502933621407,-1.4586875438690186,0.11768725514411926,-226071010,-434066911,10270,-99,0,-91,0,27046,91,-226071013,-434066885,10380,27000,121,200,3,10,0.026995552703738213,0.3400000035762787,270,88,10.270000457763672,-0.369092732667923,1012.0265502929688,0.027578124776482582,2993,0.0,4.0,-89,-89,0,50.099998474121094,1597.3004150390625,0.0,
2016-11-06 19:01:58.960000,1478466118960000,731,-57,-811,-17,1,71,152,150,-338,742,25,-839,-17,1,71,152,150,-338,-0.9354525701628972,0.052025771021505296,3.597332569798778,-0.006038801030897025,14.182000740713022,-88.24607139732142,0.028275219723582268,-1.0291799306869507,0.13842715322971344,0.03444080427289009,-3.1009485721588135,0.13337890803813934,-226071011,-434066985,10230,-140,0,-170,0,27120,266,-226071013,-434066963,10380,27043,121,200,3,10,1.8636481761932373,2.6600749492645264,271,100,10.210000038146973,0.3656751811504364,1012.0107421875,0.011796874925494194,2992,0.0,4.0,-88,-88,1,50.16999816894531,1349.79833984375,0.0,
2016-11-06 19:01:59.460000,1478466119460000,751,77,-790,-17,1,76,157,147,-336,725,26,-843,-17,1,76,157,147,-336,-0.93554104245699,0.04976545531885379,3.7853920101981475,-0.004314457159301493,14.130144236986993,-86.52512327366667,0.1053994670510292,-4.191522598266602,0.21613748371601105,0.2866179645061493,-6.314310550689697,0.12164567410945892,-226071004,-434067292,10150,-220,13,-469,0,27384,568,-226071013,-434067230,10380,27241,121,200,3,10,3.9381237030029297,4.69180154800415,273,100,10.149999618530273,0.6698349714279175,1012.018310546875,0.019375000149011612,2992,0.0,4.0,-85,-85,4,50.21999740600586,1119.1458740234375,0.0,
2016-11-06 19:01:59.700000,1478466119700000,737,-38,-856,-99,-5,53,160,148,-334,720,5,-858,-99,-4,53,160,148,-334,-1.321688668669717,0.16599272669707119,4.356116640828889,-0.009185250402025048,14.106214669229853,-85.39880458896405,0.19302454590797424,-5.910816669464111,0.22045579552650452,0.4143696129322052,-7.465832233428955,0.06727747619152069,-226070996,-434067460,10140,-229,34,-666,0,27498,666,-226070995,-434067344,10380,27292,121,200,3,10,5.25930643081665,5.685067653656006,274,100,10.140000343322754,-0.8885564804077148,1012.0249633789062,0.026015624403953552,2993,0.0,4.0,-84,-84,6,50.21999740600586,973.0907592773438,0.0,
2016-11-06 19:01:59.940000,1478466119940000,615,80,-922,-138,-119,-19,157,157,-332,685,50,-1030,-138,-119,-19,157,157,-332,-7.571884534626313,-2.0075870440146812,2.1116214972445535,-0.8407231824601094,14.05134349075891,-84.4687855410076,0.3146159052848816,-7.9007368087768555,0.2046394944190979,0.5462751984596252,-8.598369598388672,-0.11372758448123932,-226070985,-434067653,10160,-210,45,-762,1,27567,763,-226070995,-434067497,10380,27345,121,200,3,10,6.269092559814453,6.668673038482666,275,100,10.149999618530273,0.22555667161941528,1011.9808959960938,-0.018046874552965164,2992,0.0,5.429999828338623,-84,-84,8,50.20000076293945,871.1571044921875,0.0,
2016-11-06 19:02:00.180000,1478466120180000,599,80,-966,-71,-140,-79,146,166,-332,632,19,-951,-71,-140,-79,146,166,-332,-6.628170103610345,-8.012639203088174,-3.0213337524683173,-2.7881653949126566,12.692040223277992,-84.41753180147583,0.46985769271850586,-10.149988174438477,0.12873387336730957,0.6887255907058716,-9.59781265258789,-0.4110037684440613,-226070971,-434067872,10240,-130,56,-855,11,27534,856,-226070976,-434067649,10390,27374,121,200,3,10,7.7794575691223145,8.568319320678711,275,100,10.199999809265137,0.3246648609638214,1012.009765625,0.010781249962747097,2992,0.0,6.96999979019165,-84,-84,10,50.119998931884766,774.6135864257812,0.0,
2016-11-06 19:02:00.420000,1478466120420000,632,36,-881,-6,-70,-145,129,175,-335,591,58,-978,-6,-70,-145,129,175,-335,-2.868615631825298,-7.447567407769265,-5.486542830543618,-4.121930798530308,10.619807786646668,-85.30378982742,0.6422972083091736,-12.640965461730957,-0.0013226503506302834,0.7063562273979187,-10.623770713806152,-0.5751796960830688,-226070956,-434068115,10370,0,66,-938,44,27421,1026,-226070976,-434067992,10550,27368,121,200,3,10,8.830586433410645,9.413166046142578,274,100,10.319999694824219,0.4101030230522156,1011.9444580078125,-0.05453125014901161,2992,0.0,9.469999313354492,-86,-86,13,49.95000076293945,617.6006469726562,0.0,
2016-11-06 19:02:00.660000,1478466120660000,599,67,-1063,19,25,-197,120,179,-336,579,40,-1037,20,25,-197,120,179,-336,0.45800212341576024,-2.6475843069813387,-9.796612043535573,-4.660984268866524,9.257137235904933,-86.17406521070636,0.819433867931366,-15.381596565246582,-0.17474177479743958,0.7095186710357666,-11.715770721435547,-0.7571249604225159,-226070940,-434068381,10540,170,66,-1024,58,27299,1110,-226070957,-434068222,10680,27351,121,200,3,10,9.823993682861328,10.261247634887695,273,100,10.479999542236328,0.4066855311393738,1011.92919921875,-0.0697656199336052,2992,0.0,11.219999313354492,-87,-87,15,49.79999923706055,505.1722412109375,0.0,
2016-11-06 19:02:00.900000,1478466120900000,535,-69,-1162,16,96,-155,116,184,-335,571,0,-1122,17,96,-155,116,184,-335,1.1599945055185374,2.586218045496536,-11.31050298250139,-4.843168039032389,9.074790821859457,-88.8410560061104,0.9802939295768738,-18.36927032470703,-0.4083362817764282,0.6195615530014038,-12.683835983276367,-1.0627827644348145,-226070925,-434068672,10770,399,66,-1191,81,27025,1192,-226070937,-434068449,10830,27321,121,200,3,10,11.450423240661621,11.100846290588379,271,100,10.6899995803833,1.2431247234344482,1011.9048461914062,-0.09414062649011612,2992,0.0,12.739999771118164,-90,-90,19,49.46999740600586,379.3056640625,0.0,
2016-11-06 19:02:01.140000,1478466121140000,558,42,-1220,40,125,-89,118,185,-333,554,10,-1207,40,125,-89,118,185,-333,1.2767564826581996,6.159132048682284,-8.056237154334012,-4.98503320252767,9.98360469376395,-91.32382293922088,1.1015335321426392,-21.57430648803711,-0.7390910387039185,0.39949455857276917,-13.542580604553223,-1.5479462146759033,-226070915,-434068984,11100,729,56,-1270,104,26804,1271,-226070937,-434068678,11020,27252,121,200,3,10,12.20694351196289,11.92883014678955,268,100,10.979999542236328,0.7074276804924011,1011.8641967773438,-0.134765625,2992,0.0,14.639999389648438,-92,-92,22,49.15999984741211,290.70501708984375,0.0,
2016-11-06 19:02:01.380000,1478466121380000,543,-11,-1190,61,126,-63,124,184,-332,529,15,-1226,61,126,-63,124,184,-332,2.7703328382068113,7.324955266883781,-4.773282824105289,-4.8035576376013704,11.498141085606335,-92.94571282934292,1.1671669483184814,-24.959203720092773,-1.2157684564590454,0.1563490480184555,-14.2606782913208,-2.270055055618286,-226070909,-434069313,11580,1209,33,-1342,145,26665,1343,-226070919,-434068946,11270,27140,121,200,3,10,13.398643493652344,13.434053421020508,267,100,11.399999618530273,1.086773157119751,1011.8214111328125,-0.1775781214237213,2991,0.0,15.799999237060547,-93,-93,25,48.73999786376953,198.33001708984375,0.0,
2016-11-06 19:02:01.880000,1478466121880000,507,149,-1190,163,100,-71,137,162,-338,464,10,-1196,163,100,-71,137,162,-338,10.200887525414043,5.841978190988265,-4.314693677946877,-0.26641886569361983,15.629631160766898,-96.16715106081193,1.1341314315795898,-29.697599411010742,-2.1278252601623535,-0.1571243852376938,-14.997681617736816,-3.247485637664795,-226070912,-434069774,12490,2120,-16,-1454,258,26512,1494,-226070919,-434069785,12640,26873,121,200,3,10,15.857410430908203,14.943643569946289,263,93,13.369999885559082,3.024509906768799,1011.6473388671875,-0.35164061188697815,2990,5.0,18.31999969482422,-85,-85,32,47.14999771118164,14.258956909179688,0.0,
2016-11-06 19:02:02.380000,1478466122380000,399,21,-1084,88,76,-17,148,147,-340,409,8,-1135,88,76,-17,148,147,-340,3.482814843409994,4.370081389473803,-1.069123107479749,2.0812043169929595,18.09890164007742,-97.69466822717192,0.9548119902610779,-39.626163482666016,-4.823641777038574,-0.09757383167743683,-15.670809745788574,-4.903110980987549,-226070928,-434070740,15190,4819,-41,-1544,435,26246,1544,-226070937,-434070357,14160,26847,121,200,3,10,17.078603744506836,15.445442199707031,262,87,15.699999809265137,3.7686760425567627,1011.39794921875,-0.6010156273841858,2989,7.339999675750732,20.25,-85,-85,40,44.87999725341797,-107.8603744506836,0.0,
2016-11-06 19:02:02.880000,1478466122880000,317,11,-1135,155,63,0,159,119,-346,374,-7,-1092,156,64,0,159,119,-346,9.763728951550194,3.6735028394227602,-0.3974468401731908,7.009947369249616,20.068055423075847,-98.3890525789521,0.8291860818862915,-49.76984405517578,-8.435932159423828,0.2799072265625,-15.769759178161621,-6.1060261726379395,-226070939,-434071728,18800,8429,-17,-1570,568,26162,1570,-226070957,-434071273,17190,26937,121,200,3,10,17.798233032226562,15.700920104980469,261,83,18.549999237060547,5.696160316467285,1011.06640625,-0.9325780868530273,2987,11.319999694824219,21.5,-85,-85,48,42.05999755859375,-179.8231201171875,0.0,
2016-11-06 19:02:03.380000,1478466123380000,196,130,-1036,7,52,41,170,101,-347,353,-5,-1049,7,52,41,170,101,-347,0.9337635924471999,2.975239793967663,2.183928654562659,9.586441146358757,21.537715764523956,-97.61482331577447,0.9444752931594849,-54.8369026184082,-10.524056434631348,0.8387790322303772,-15.82513427734375,-6.6252288818359375,-226070929,-434072221,20890,10519,31,-1567,633,26205,1568,-226070957,-434071883,19600,27113,121,200,3,10,18.567453384399414,15.683063507080078,262,80,21.850000381469727,7.2203755378723145,1010.6630859375,-1.3358592987060547,2985,10.670000076293945,22.549999237060547,-85,-85,56,38.790000915527344,-256.7453308105469,0.0,
2016-11-06 19:02:03.880000,1478466123880000,291,-43,-963,-50,39,38,180,101,-342,344,0,-1013,-50,39,38,180,101,-342,-2.7387854750909915,2.2731275100284405,2.189931963956277,9.378338088953162,22.58936852876728,-96.19874068572324,1.7173736095428467,-64.85963439941406,-15.129117965698242,1.917646050453186,-15.518209457397461,-7.310803413391113,-226070859,-434073196,25490,15120,138,-1548,703,26381,1554,-226070919,-434072799,23640,27509,121,200,3,10,18.7029972076416,15.541389465332031,263,79,25.489999771118164,6.861537456512451,1010.2529296875,-1.7460155487060547,2982,9.34000015258789,23.28999900817871,-85,-85,64,35.18000030517578,-270.2997131347656,0.0,
2016-11-06 19:02:04.380000,1478466124380000,311,-58,-967,-53,22,26,187,107,-336,339,7,-980,-53,22,26,187,107,-336,-3.115168598833245,1.2476996839902017,1.5683119652817739,8.231346129180213,23.255230010573484,-95.0474849803609,2.3554065227508545,-69.7794418334961,-17.56333351135254,2.3977315425872803,-15.32467269897461,-7.458768844604492,-226070802,-434073675,27930,17560,174,-1537,719,26460,1540,-226070842,-434073371,26520,27783,121,200,3,10,18.898170471191406,15.403817176818848,264,79,29.309999465942383,8.206334114074707,1009.779296875,-2.2196874618530273,2980,8.199999809265137,23.59000015258789,-85,-85,72,31.35999870300293,-289.8170471191406,0.0,
2016-11-06 19:02:04.880000,1478466124880000,354,17,-996,-43,18,28,191,113,-332,341,5,-957,-43,18,28,191,113,-332,-2.5651560899737436,0.9880887826713657,1.6143419974806648,7.180769973504812,23.677752342819645,-94.10546529003275,4.101152420043945,-79.39370727539062,-22.531410217285156,3.213732957839966,-14.977200508117676,-7.61831521987915,-226070645,-434074610,32900,22529,306,-1488,753,26582,1519,-226070709,-434074286,30990,28162,121,200,3,10,18.775718688964844,15.19137954711914,265,79,33.209999084472656,7.373310089111328,1009.3726196289062,-2.6263279914855957,2977,7.329999923706055,23.94999885559082,-85,-85,79,27.469999313354492,-277.5718688964844,0.0,
2016-11-06 19:02:05.380000,1478466125380000,367,7,-905,-38,11,20,195,118,-328,345,5,-939,-38,11,20,195,118,-328,-2.267210858659917,0.5955553031106471,1.0879298199159675,6.325462522897727,24.00421489457874,-93.38453199294874,5.194469928741455,-84.1144027709961,-25.028215408325195,3.5638675689697266,-14.794171333312988,-7.586592674255371,-226070547,-434075070,35390,25019,334,-1475,757,26634,1505,-226070594,-434074859,34020,28391,121,200,3,10,18.777536392211914,15.051793098449707,266,80,37.11000061035156,7.868849754333496,1008.9144897460938,-3.0844531059265137,2975,6.619999885559082,24.0,-85,-85,87,23.56999969482422,-277.7536315917969,0.0,
2016-11-06 19:02:05.880000,1478466125880000,373,-48,-951,-29,8,15,197,122,-325,349,7,-935,-28,8,16,197,122,-325,-1.7308098495991933,0.47119431363252257,0.8749573712406826,5.624717984339799,24.253405808710195,-92.83388897225147,7.801412105560303,-93.33940124511719,-30.01007080078125,4.386685848236084,-14.36469841003418,-7.573739528656006,-226070313,-434075967,40380,30010,412,-1434,762,26709,1485,-226070365,-434075659,38600,28706,121,200,3,10,18.54838752746582,14.854278564453125,267,81,41.0,8.297750473022461,1008.4188842773438,-3.580078125,2972,6.109999656677246,24.170000076293945,-85,-85,94,19.68000030517578,-254.8387451171875,0.0,
2016-11-06 19:02:06.380000,1478466126380000,365,-21,-983,-25,6,17,200,125,-322,352,8,-928,-25,6,17,200,125,-322,-1.5216388280838435,0.3885143401209893,0.9799798540226796,5.121848721792196,24.481749277947475,-92.25724342138398,9.314332008361816,-97.84329986572266,-32.515281677246094,4.767620086669922,-14.184720993041992,-7.595147132873535,-226070177,-434076406,42880,32509,456,-1408,764,26743,1474,-226070194,-434076231,41660,28891,121,200,3,10,18.27849006652832,14.746216773986816,267,81,44.91999816894531,7.2349019050598145,1007.9953002929688,-4.003671646118164,2970,5.599999904632568,24.239999771118164,-85,-85,101,15.769999504089355,-227.8489990234375,0.0,
2016-11-06 19:02:06.880000,1478466126880000,354,20,-966,-22,-18,8,200,128,-321,357,11,-893,-22,-18,8,200,128,-321,-1.363902546113275,-0.9475932314125948,0.47290810414481393,4.581318649934787,24.39641460200463,-91.83642180624115,12.693873405456543,-106.62662506103516,-37.527061462402344,5.421195030212402,-13.713144302368164,-7.632602214813232,-226069873,-434077260,47890,37520,517,-1369,762,26810,1459,-226069927,-434077033,46240,29155,121,200,3,10,18.08024787902832,14.590219497680664,268,83,48.84000015258789,8.138836860656738,1007.5079345703125,-4.491015434265137,2967,5.179999828338623,23.1299991607666,-85,-85,108,11.84999942779541,-208.0247802734375,0.0,
2016-11-06 19:02:07.380000,1478466127380000,400,51,-833,-12,-25,11,197,131,-322,359,7,-868,-12,-25,11,197,131,-322,-0.7528961278004426,-1.4826844449782626,0.5772018377588823,4.143670009997989,23.743334111682813,-91.5704679003392,16.444841384887695,-115.12482452392578,-42.50585174560547,6.009945392608643,-13.470559120178223,-7.395075798034668,-226069536,-434078087,52870,42500,570,-1338,749,26845,1454,-226069736,-434077568,49260,29307,121,200,3,10,18.137786865234375,14.543535232543945,268,83,52.720001220703125,7.652690410614014,1007.0997314453125,-4.899218559265137,2964,4.989999771118164,22.399999618530273,-85,-85,115,7.960000038146973,-213.7786865234375,0.0,
2016-11-06 19:02:07.880000,1478466127880000,431,-1,-815,-8,-31,11,193,132,-324,363,8,-868,-8,-31,11,193,132,-324,-0.503862414741606,-1.7525070127147966,0.6296293559716952,3.9635152329024406,22.96981006553699,-91.28607931386738,18.431255340576172,-119.34579467773438,-44.92091751098633,6.271859645843506,-13.342839241027832,-7.292569160461426,-226069358,-434078498,55290,44920,600,-1328,728,26863,1460,-226069411,-434078329,53670,29486,121,200,3,10,17.97353744506836,14.603496551513672,268,84,56.470001220703125,7.1896185874938965,1006.6661987304688,-5.332734107971191,2962,4.789999961853027,21.399999618530273,-85,-85,122,4.190000057220459,-197.35374450683594,0.0,
2016-11-06 19:02:08.380000,1478466128380000,424,27,-1035,-4,-29,9,188,132,-326,358,11,-877,-4,-29,9,188,132,-326,-0.3075159271666014,-1.719428833451248,0.5790913455597428,3.83200335552843,22.0916645967795,-91.00774910518936,22.603830337524414,-127.7170639038086,-49.57611846923828,6.727560997009277,-13.293985366821289,-6.925536155700684,-226068983,-434079313,59940,49570,642,-1321,697,26899,1469,-226069183,-434078864,56500,29590,121,200,3,10,17.873842239379883,14.696420669555664,269,83,60.08000183105469,6.945266246795654,1006.2122192382812,-5.786718845367432,2959,4.639999866485596,20.770000457763672,-85,-85,129,0.5699999928474426,-187.38421630859375,0.0,
2016-11-06 19:02:08.880000,1478466128880000,417,100,-652,-987,-98,23,181,200,-295,372,81,-707,-987,-97,23,181,200,-295,-59.864265320276445,-6.286506112079736,2.243261440665502,-11.065920738512403,20.178217836651694,-89.94960936878181,24.796899795532227,-131.9263458251953,-51.80769348144531,6.947547912597656,-13.324926376342773,-6.678276062011719,-226068786,-434079722,62170,51800,669,-1323,676,26929,1490,-226068839,-434079627,60600,29723,121,200,3,10,18.081817626953125,14.902177810668945,270,89,63.5099983215332,6.9615044593811035,1005.8439331054688,-6.154999732971191,2957,-29.260000228881836,20.689998626708984,-101,-101,149,-1.1999999284744263,-208.1817626953125,0.0,
2016-11-06 19:02:09.380000,1478466129380000,393,103,-939,-147,101,-260,163,291,-219,352,103,-924,-147,101,-260,163,291,-219,-11.049118473154172,4.738737007943834,-14.384371561857684,-28.54476073026314,18.22092638469428,-93.12140578536317,29.065916061401367,-140.58358764648438,-55.85079574584961,6.181062698364258,-13.923686981201172,-5.683623790740967,-226068402,-434080565,66220,55850,668,-1358,602,26779,1513,-226068572,-434080162,63150,29619,121,200,3,10,18.489524841308594,15.134027481079102,266,82,66.55999755859375,6.173755168914795,1005.4946899414062,-6.504296779632568,2955,-28.65999984741211,19.059999465942383,-102,-102,143,-2.2899999618530273,-248.95248413085938,0.0,
2016-11-06 19:02:09.880000,1478466129880000,413,7,-1236,212,217,-234,138,312,-208,369,59,-1220,212,217,-234,138,312,-208,10.712679576338623,12.372581176739095,-13.828593946451868,-30.680656506374508,18.57201347595857,-102.60194057977264,30.832117080688477,-145.0391082763672,-57.68832778930664,4.948231220245361,-14.020395278930664,-5.594101905822754,-226068244,-434080998,68050,57680,579,-1388,540,26210,1476,-226068267,-434080962,66490,28955,121,200,3,10,18.917749404907227,14.761155128479004,257,83,69.44999694824219,5.45351505279541,1005.1741943359375,-6.824765682220459,2953,-23.799999237060547,19.69999885559082,-104,-104,137,-3.0799999237060547,-291.7749328613281,0.0,
2016-11-06 19:02:10.380000,1478466130380000,402,51,-1157,357,144,-176,127,295,-237,360,43,-1174,357,144,-176,127,295,-237,19.939760564800913,8.750267190050995,-10.404645728733865,-25.036527978187177,20.568204562786494,-110.95425789689024,32.88569641113281,-153.76409912109375,-61.58146286010742,1.6452014446258545,-13.154061317443848,-6.499980926513672,-226068059,-434081847,71950,61579,280,-1352,581,25048,1380,-226068115,-434081496,68710,28170,121,200,3,10,18.921424865722656,13.806896209716797,249,85,72.62000274658203,6.045602321624756,1004.789794921875,-7.209140300750732,2951,-16.190000534057617,19.93000030517578,-105,-105,130,-4.150000095367432,-292.1424865722656,0.0,
2016-11-06 19:02:10.880000,1478466130880000,307,91,-1016,284,46,-122,118,261,-278,360,33,-1005,284,46,-122,118,261,-278,16.598473003965697,2.9064358833635398,-7.238125633286348,-17.399947891742503,21.45945033437207,-116.07286313260033,33.138343811035156,-161.79931640625,-66.07080078125,-0.41810959577560425,-12.031363487243652,-7.158633232116699,-226068037,-434082629,76440,66070,24,-1231,670,24364,1231,-226068037,-434082220,72490,27111,121,200,3,10,19.017536163330078,12.312338829040527,243,89,76.13999938964844,6.623175144195557,1004.3907470703125,-7.608202934265137,2949,-10.9399995803833,19.889999389648438,-106,-106,124,-0.7299999594688416,-301.75360107421875,0.0,
2016-11-06 19:02:11.380000,1478466131380000,393,94,-934,173,11,-83,109,233,-305,373,28,-938,174,11,-83,109,233,-305,10.179431339910094,0.6959649536036525,-4.89036763440494,-12.050752908331848,21.41866215219605,-118.94886454679595,32.889732360839844,-165.6132354736328,-68.44075775146484,-1.0667593479156494,-11.712972640991211,-7.265817165374756,-226068059,-434083000,78810,68439,-72,-1169,692,24171,1171,-226068037,-434082717,75220,26642,121,200,3,10,19.25189781188965,11.712770462036133,241,93,79.8499984741211,6.467667102813721,1003.9869995117188,-8.011953353881836,2947,-7.829999923706055,19.85999870300293,-107,-107,119,-2.740000009536743,-325.1897888183594,0.0,
2016-11-06 19:02:11.880000,1478466131880000,297,42,-928,110,-3,-60,102,214,-322,377,25,-916,110,-2,-59,102,214,-322,6.450312404510036,-0.17702036059674767,-3.471435107922518,-8.724207457046457,21.084389279121037,-120.72154452322437,31.883670806884766,-173.09219360351562,-73.22765350341797,-1.9651848077774048,-11.5104398727417,-7.273478984832764,-226068149,-434083728,83590,73220,-168,-1117,696,23928,1130,-226068115,-434083404,79400,26145,121,200,3,10,19.36524772644043,11.305520057678223,239,94,83.58999633789062,7.47753381729126,1003.5857543945312,-8.413203239440918,2944,-5.849999904632568,19.600000381469727,-107,-107,113,-4.799999713897705,-336.5247802734375,0.0,
2016-11-06 19:02:12.380000,1478466132380000,390,49,-943,66,-11,-44,95,202,-331,380,24,-905,66,-11,-43,95,202,-331,3.7503266727729483,-0.6718063610659059,-2.515965921344958,-6.697380837356907,20.608415593977654,-122.00865269117826,31.20018196105957,-176.81106567382812,-75.61968994140625,-2.222188711166382,-11.554672241210938,-7.237459182739258,-226068211,-434084090,85980,75610,-192,-1107,694,23843,1119,-226068191,-434083786,82180,25903,121,200,3,10,19.24346351623535,11.194507598876953,238,95,87.31999969482422,7.238321304321289,1003.1640625,-8.834921836853027,2942,-4.690000057220459,19.100000381469727,-108,-108,107,-1.8600000143051147,-324.3463439941406,0.0,
2016-11-06 19:02:12.880000,1478466132880000,317,10,-840,62,-16,-35,88,193,-338,383,22,-901,62,-16,-35,88,193,-338,3.504382232931367,-0.9430619345068203,-2.0318803193451243,-5.272731869426009,20.049545610425113,-123.15056469775601,29.525476455688477,-184.1726531982422,-80.34667205810547,-2.814703941345215,-11.500585556030273,-7.134658336639404,-226068361,-434084806,90710,80340,-270,-1086,682,23694,1119,-226068325,-434084433,86300,25603,121,200,3,10,19.320926666259766,11.190603256225586,236,97,91.0,7.193882465362549,1002.7645263671875,-9.234453201293945,2940,-3.4800000190734863,18.459999084472656,-108,-108,101,-4.139999866485596,-332.0926513671875,0.0,
2016-11-06 19:02:13.380000,1478466133380000,370,93,-850,47,-22,-24,82,185,-344,378,20,-895,47,-22,-24,82,185,-344,2.7021483403830433,-1.2974175914540766,-1.4282884982631638,-4.030475846204307,19.413361300562617,-124.17983322454191,28.55281639099121,-187.78158569335938,-82.67217254638672,-2.993943214416504,-11.530096054077148,-7.120903491973877,-226068449,-434085157,93040,82670,-287,-1085,678,23625,1127,-226068420,-434084853,89020,25441,121,200,3,10,19.701515197753906,11.274772644042969,235,97,94.62000274658203,7.169978618621826,1002.3500366210938,-9.648905754089355,2937,-2.6599998474121094,17.770000457763672,-108,-108,95,-1.5199999809265137,-370.1515197753906,0.0,
2016-11-06 19:02:13.880000,1478466133880000,350,28,-928,38,-26,-17,75,178,-349,365,19,-891,37,-26,-17,75,178,-349,2.094346668173122,-1.524830340695238,-1.0322707150912394,-3.1295623687354004,18.673064417181614,-125.04103811661048,26.425029754638672,-194.94851684570312,-87.2263412475586,-3.3440983295440674,-11.640970230102539,-6.9622273445129395,-226068640,-434085855,97590,87220,-333,-1091,664,23509,1148,-226068592,-434085502,93020,25241,121,200,3,10,19.8503475189209,11.486660957336426,234,95,98.1500015258789,7.316925525665283,1001.9712524414062,-10.02773380279541,2935,-2.0399999618530273,17.100000381469727,-108,-108,89,-3.9700000286102295,-385.0347595214844,0.0,
2016-11-06 19:02:14.380000,1478466134380000,321,-87,-830,46,-26,-11,69,172,-353,350,18,-894,46,-26,-11,69,172,-353,2.4358125842178007,-1.4979457556267157,-0.78809710851369,-2.4505715557971404,18.03834689044338,-125.66360985945714,25.263164520263672,-198.5223388671875,-89.42546081542969,-3.5683419704437256,-11.700502395629883,-6.809991359710693,-226068744,-434086203,99790,89420,-360,-1100,653,23458,1165,-226068724,-434085922,95630,25139,121,200,3,10,20.12535858154297,11.659369468688965,234,91,100.87000274658203,6.792328357696533,1001.600830078125,-10.398124694824219,2933,-1.1100000143051147,16.479999542236328,-109,-109,84,9.109999656677246,-401.47589111328125,0.0,
2016-11-06 19:02:14.620000,1478466134620000,328,-13,-906,45,-26,-7,66,168,-356,348,16,-896,45,-26,-6,66,168,-356,2.682885926263138,-1.560367388059991,-0.6072418635022446,-1.9396281558769353,17.65681593850105,-126.0109659598873,24.013097763061523,-202.10479736328125,-91.5601806640625,-3.7940306663513184,-11.779912948608398,-6.659343242645264,-226068856,-434086551,101930,91560,-384,-1112,637,23411,1185,-226068858,-434086379,98190,25058,121,200,3,10,20.05708885192871,11.764352798461914,233,91,102.44999694824219,5.9345269203186035,1001.3772583007812,-10.621718406677246,2932,-0.6399999856948853,16.03999900817871,-108,-108,80,7.149999618530273,-402.3634033203125,0.0,
2016-11-06 19:02:14.860000,1478466134860000,375,-75,-957,44,-25,-2,63,165,-358,343,15,-898,44,-25,-2,63,165,-358,2.3522046654744977,-1.5582645435692735,-0.3490949171824656,-1.4180061820762384,17.275696505456217,-126.30119435809948,23.030715942382812,-204.7971649169922,-93.11219787597656,-3.8922431468963623,-11.824962615966797,-6.536893844604492,-226068945,-434086813,103480,93110,-393,-1117,631,23379,1195,-226068934,-434086570,99440,25024,121,200,3,10,20.18072509765625,11.853943824768066,233,91,103.98999786376953,6.9623517990112305,1001.2134399414062,-10.78554630279541,2931,-0.07999999821186066,15.819999694824219,-108,-108,78,5.869999885559082,-423.22576904296875,0.0,
2016-11-06 19:02:15.100000,1478466135100000,369,-8,-929,49,-25,1,60,160,-361,336,14,-901,49,-25,1,60,160,-361,2.7348956823586694,-1.4941951279987324,-0.1353523379978353,-0.8901092921407097,16.906869705370113,-126.5268638082767,22.011146545410156,-207.4998779296875,-94.63468933105469,-4.150719165802002,-11.930459976196289,-6.440133094787598,-226069036,-434087076,105000,94630,-404,-1125,624,23355,1206,-226069010,-434086798,100680,24998,121,200,3,10,20.20933723449707,11.953413963317871,233,90,105.5,6.325841426849365,1001.0084838867188,-10.990468978881836,2929,0.3199999928474426,15.559999465942383,-108,-108,74,4.009999752044678,-434.0782165527344,0.0,
2016-11-06 19:02:15.340000,1478466135340000,380,-53,-910,42,-24,6,59,156,-363,330,13,-903,42,-24,6,59,156,-363,2.666301586628112,-1.4903750245402854,0.10510066977169513,-0.28207512669474355,16.549768632541628,-126.69274178245963,20.950742721557617,-210.22247314453125,-96.12211608886719,-4.250490188598633,-12.028176307678223,-6.274236679077148,-226069131,-434087341,106490,96119,-413,-1134,616,23336,1218,-226069086,-434087028,101910,24977,121,200,3,10,20.460609436035156,12.180681228637695,233,89,106.97000122070312,6.372823238372803,1000.8717041015625,-11.127264976501465,2929,0.6899999976158142,15.229999542236328,-108,-108,71,2.7899999618530273,-442.8175048828125,0.0,
2016-11-06 19:02:15.580000,1478466135580000,323,-17,-913,40,-23,10,57,154,-364,324,13,-907,40,-23,10,57,154,-364,2.11351388653147,-1.4379149028463563,0.3924602151096997,0.26153263907484264,16.205655164419923,-126.77678043000748,19.868663787841797,-212.9665985107422,-97.5684814453125,-4.372980117797852,-12.136262893676758,-6.09226655960083,-226069229,-434087608,107930,97560,-421,-1142,608,23325,1229,-226069164,-434087257,103120,24963,121,200,3,10,20.521785736083984,12.298750877380371,233,88,108.41000366210938,5.607304573059082,1000.702392578125,-11.296562194824219,2928,1.2200000286102295,15.019999504089355,-108,-108,69,1.6100000143051147,-458.73089599609375,0.0,
2016-11-06 19:02:15.820000,1478466135820000,321,-140,-890,26,-22,14,55,149,-366,318,12,-911,26,-22,14,55,149,-366,2.1975092050667597,-1.3769833188692013,0.6056400774201709,0.7832875881209432,15.880544990116487,-126.7826953738287,18.76392364501953,-215.7244873046875,-98.97321319580078,-4.45897912979126,-12.139275550842285,-5.985980033874512,-226069328,-434087876,109340,98970,-433,-1164,595,23322,1254,-226069335,-434087715,105510,24957,121,200,3,10,20.6331787109375,12.422768592834473,233,88,109.80000305175781,6.651353359222412,1000.483642578125,-11.515312194824219,2926,1.2599999904632568,14.75999927520752,-108,-108,65,-0.12999999523162842,-476.1421203613281,0.0,
2016-11-06 19:02:16.060000,1478466136060000,299,-15,-880,15,-44,18,53,148,-367,311,12,-880,15,-44,18,53,148,-367,1.262068267569793,-1.2939564998138784,0.8420845778999104,1.1909197878113569,15.574533732279697,-126.71446178402027,17.662246704101562,-218.50210571289062,-100.36833190917969,-4.492687225341797,-12.252360343933105,-5.912999629974365,-226069427,-434088147,110730,100360,-438,-1175,587,23326,1268,-226069393,-434087944,106680,24960,121,200,3,10,20.869232177734375,12.549182891845703,233,87,111.19000244140625,6.195974349975586,1000.3715209960938,-11.627421379089355,2926,1.3299999237060547,14.589999198913574,-108,-108,63,-1.2799999713897705,-494.4696350097656,0.0,
2016-11-06 19:02:16.300000,1478466136300000,268,-56,-787,15,-18,19,50,146,-368,297,12,-909,15,-18,19,50,146,-368,0.8008728706344931,-1.6690677142666284,1.0379411594845251,1.451879331326153,15.044483731930029,-126.59291173755074,16.560993194580078,-221.3172149658203,-101.74612426757812,-4.492255687713623,-12.394495010375977,-5.814977169036865,-226069526,-434088421,112110,101740,-442,-1189,581,23337,1280,-226069487,-434088172,107830,24971,121,200,3,10,20.883350372314453,12.68497085571289,233,83,112.56999969482422,6.2113542556762695,1000.1688842773438,-11.830078125,2925,1.5199999809265137,14.469999313354492,-108,-108,59,-2.9800000190734863,-513.927490234375,0.0,
2016-11-06 19:02:16.540000,1478466136540000,341,-3,-930,14,-14,20,50,145,-369,287,12,-928,14,-14,20,50,145,-369,0.9149273180984799,-0.9506684173646872,1.0236496289765082,1.7045141549031733,14.763974692906775,-126.4436584438076,15.453680992126465,-224.1722412109375,-103.095703125,-4.572787761688232,-12.52700138092041,-5.599862098693848,-226069625,-434088698,113460,103090,-444,-1200,575,23351,1295,-226069563,-434088401,108970,24985,121,200,3,10,21.245882034301758,12.952112197875977,233,81,113.9000015258789,5.586802959442139,1000.0491943359375,-11.9497652053833,2924,1.5799999237060547,14.279999732971191,-108,-108,56,-4.079999923706055,-509.41790771484375,0.0,
2016-11-06 19:02:16.780000,1478466136780000,320,64,-924,2,-15,23,49,144,-369,279,11,-931,2,-15,23,49,144,-369,0.5725717165535541,-0.8547822197320815,1.1274976393863803,1.9434355594523944,14.54742354527152,-126.27750726205788,14.3427152633667,-227.06536865234375,-104.41703033447266,-4.5799970626831055,-12.655020713806152,-5.560788631439209,-226069725,-434088980,114780,104409,-446,-1216,562,23367,1307,-226069641,-434088668,110090,25001,121,200,3,10,21.21431541442871,13.077652931213379,233,78,115.22000122070312,5.178410530090332,999.8775024414062,-12.12148380279541,2923,1.409999966621399,14.109999656677246,-107,-107,54,-5.179999828338623,-507.208251953125,0.0,
2016-11-06 19:02:17.020000,1478466137020000,272,4,-960,-8,-16,24,48,144,-369,272,12,-928,-8,-16,24,48,144,-369,-0.20600402821585875,-0.9630399176639902,1.2906246481593815,2.0513913950395004,14.323019387638045,-126.06618120913768,13.244842529296875,-230.0088653564453,-105.72753143310547,-4.517082691192627,-12.830452919006348,-5.515554904937744,-226069824,-434089266,116090,105720,-444,-1241,548,23386,1329,-226069812,-434089126,112280,25052,121,200,3,10,21.143016815185547,13.183725357055664,233,78,116.52999877929688,6.3907694816589355,999.7091064453125,-12.289843559265137,2922,1.3199999332427979,13.84999942779541,-107,-107,50,-6.809999942779541,-524.8935546875,0.0,
2016-11-06 19:02:17.260000,1478466137260000,230,92,-897,-2,-16,23,47,144,-369,269,13,-928,-2,-16,23,47,144,-369,-0.4298715357518132,-1.0089388956081817,1.2864701855967213,2.0205936451850897,14.076572502005645,-125.81981628577533,12.162857055664062,-232.99757385253906,-107.0316390991211,-4.528387546539307,-12.946605682373047,-5.429032802581787,-226069921,-434089557,117400,107030,-442,-1253,543,23410,1339,-226069869,-434089355,113360,25082,121,200,3,10,21.32264518737793,13.290063858032227,234,77,117.81999969482422,5.461206436157227,999.5706787109375,-12.4282808303833,2921,1.2799999713897705,13.65999984741211,-107,-107,47,-7.87999963760376,-526.2088623046875,0.0,
2016-11-06 19:02:17.500000,1478466137500000,229,2,-996,-9,-17,23,46,145,-369,261,13,-928,-9,-17,23,46,145,-369,-0.4428109556084321,-1.0226594649902678,1.2409289388103093,2.0245910133968397,13.829325630466705,-125.5803908346097,11.081868171691895,-236.01345825195312,-108.30874633789062,-4.461289882659912,-13.089000701904297,-5.324643611907959,-226070018,-434089851,118670,108299,-440,-1265,538,23434,1348,-226069964,-434089622,114430,25109,121,200,3,10,21.21969985961914,13.393375396728516,234,76,119.0999984741211,5.341587066650391,999.3753662109375,-12.6235933303833,2920,1.1899999380111694,13.5,-107,-107,43,-9.460000038146973,-530.408447265625,0.0,
2016-11-06 19:02:17.740000,1478466137740000,212,48,-962,-20,-17,23,46,145,-369,257,14,-928,-20,-17,23,46,145,-369,-0.7428632736007814,-1.065788907947725,1.2467765412351923,1.944540769437467,13.581078989988008,-125.33082938271578,10.019403457641602,-239.07003784179688,-109.56938934326172,-4.420702934265137,-13.209861755371094,-5.238587379455566,-226070113,-434090148,119930,109560,-437,-1275,532,23459,1359,-226070040,-434089850,115490,25137,121,200,3,10,21.416601181030273,13.59154224395752,234,75,120.3499984741211,6.009707927703857,999.2567749023438,-12.7421875,2919,0.6100000143051147,13.239999771118164,-107,-107,40,-10.5,-532.7857666015625,0.0,
2016-11-06 19:02:17.980000,1478466137980000,235,22,-927,-27,-17,22,45,147,-368,251,15,-929,-27,-17,22,45,147,-368,-1.413528459466766,-1.0683342206306126,1.2494327377703867,1.737123505713224,13.33068425501534,-125.06412415600512,8.988081932067871,-242.15611267089844,-110.822998046875,-4.306146144866943,-13.351543426513672,-5.213474273681641,-226070206,-434090448,121190,110820,-433,-1288,526,23485,1368,-226070116,-434090117,116540,25164,121,200,3,10,21.488128662109375,13.68635082244873,234,74,121.5999984741211,5.022907257080078,999.122802734375,-12.876171112060547,2919,0.3100000023841858,13.109999656677246,-107,-107,38,-11.539999961853027,-543.4249877929688,0.0,
2016-11-06 19:02:18.220000,1478466138220000,321,64,-904,-18,-15,19,44,150,-368,241,16,-932,-18,-15,19,44,150,-368,-1.508298828304574,-1.0300840940614833,1.1237288690684142,1.4217835968523729,13.086834548814837,-124.80953568488206,7.980742454528809,-245.27381896972656,-112.06889343261719,-4.252990245819092,-13.441064834594727,-5.157064914703369,-226070297,-434090752,122430,112060,-427,-1310,513,23511,1387,-226070270,-434090652,118590,25216,121,200,3,10,21.61703109741211,13.781450271606445,235,72,122.8499984741211,5.316824913024902,998.9633178710938,-13.035624504089355,2918,0.3199999928474426,13.029999732971191,-107,-107,34,-13.09000015258789,-572.522705078125,0.0,
2016-11-06 19:02:18.460000,1478466138460000,188,86,-894,-5,-15,17,43,151,-367,226,16,-935,-5,-15,17,43,151,-367,-0.7158892023819614,-0.9134476216478201,0.9251227628168991,1.202916588201661,12.859846018354158,-124.60352351913613,6.97094202041626,-248.4123077392578,-113.3045654296875,-4.30047082901001,-13.560537338256836,-5.0869903564453125,-226070387,-434091057,123670,113299,-425,-1321,506,23534,1396,-226070346,-434090881,119600,25240,121,200,3,10,21.6002197265625,13.876836776733398,235,68,124.08000183105469,5.044262409210205,998.8622436523438,-13.13671875,2917,0.25999999046325684,12.889999389648438,-107,-107,31,-14.119999885559082,-562.3895874023438,0.0,
2016-11-06 19:02:18.700000,1478466138700000,187,11,-998,-10,-15,17,42,151,-367,224,16,-935,-10,-15,17,42,151,-367,-0.3830280973918823,-0.9429831738879535,0.8584763382168534,1.1431272466414852,12.639429837422322,-124.43186720491538,5.953909873962402,-251.58633422851562,-114.52603912353516,-4.252083778381348,-13.616042137145996,-5.044490814208984,-226070479,-434091366,124890,114520,-421,-1331,498,23552,1403,-226070423,-434091148,120590,25262,121,200,3,10,21.74978256225586,13.962967872619629,235,68,125.30000305175781,4.957122802734375,998.661865234375,-13.337108612060547,2916,0.029999999329447746,12.729999542236328,-107,-107,27,-15.639999389648438,-579.027587890625,0.0,
2016-11-06 19:02:18.940000,1478466138940000,205,-20,-928,-20,-15,18,41,152,-367,219,16,-936,-20,-15,17,41,152,-367,-0.8413511863377803,-0.9410772309444027,0.9181616261138925,1.0360945538093889,12.415882014756036,-124.2529708901744,4.957838535308838,-254.7701416015625,-115.74340057373047,-4.157021522521973,-13.63866138458252,-5.033748149871826,-226070568,-434091676,126110,115740,-419,-1339,492,23569,1408,-226070480,-434091414,121560,25286,121,200,3,10,21.81182098388672,14.085244178771973,235,67,126.51000213623047,5.247617244720459,998.5535888671875,-13.445390701293945,2915,-0.3499999940395355,12.519999504089355,-107,-107,24,-16.639999389648438,-582.6900634765625,0.0,
2016-11-06 19:02:19.180000,1478466139180000,265,20,-964,-21,-29,16,40,154,-366,199,18,-922,-21,-29,16,40,154,-366,-1.1899971786648762,-0.9627684176444822,0.8850092752648258,0.810114276664079,12.190128894761482,-124.06717608437171,3.9864203929901123,-257.9649658203125,-116.9382095336914,-4.082517623901367,-13.645243644714355,-4.907257556915283,-226070655,-434091987,127300,116930,-415,-1346,485,23588,1414,-226070575,-434091643,122530,25306,121,200,3,10,21.782573699951172,14.143383026123047,235,65,127.69999694824219,5.192930698394775,998.4375610351562,-13.561406135559082,2915,-0.6800000071525574,11.460000038146973,-107,-107,21,-17.619998931884766,-580.6427001953125,0.0,
2016-11-06 19:02:19.420000,1478466139420000,242,1,-822,-18,-68,15,36,156,-366,148,20,-847,-18,-68,15,36,156,-366,-1.342902489179836,-2.6818611844442244,0.7917973101356915,0.5522956063112837,11.776117831994805,-123.90684422379483,3.0299437046051025,-261.1711730957031,-118.11273193359375,-4.005900859832764,-13.731681823730469,-4.866205215454102,-226070741,-434092299,128480,118110,-408,-1360,471,23605,1423,-226070709,-434092215,124420,25347,121,200,3,10,21.76824188232422,14.201693534851074,236,56,128.86000061035156,4.56324577331543,998.268798828125,-13.730155944824219,2914,-1.1100000143051147,9.449999809265137,-107,-107,17,-19.059999465942383,-581.6104736328125,0.0,
2016-11-06 19:02:19.660000,1478466139660000,110,23,-741,-20,-102,14,30,158,-366,106,21,-770,-20,-102,14,30,158,-366,-0.9822076696308674,-4.824121202758163,0.7219488074753793,0.31036134128614645,10.828964400731737,-123.76887440256058,2.0796103477478027,-264.4022521972656,-119.25302124023438,-3.9829866886138916,-13.752431869506836,-4.623993873596191,-226070827,-434092613,129620,119250,-404,-1365,464,23619,1424,-226070803,-434092483,125330,25368,121,200,3,10,21.60750961303711,14.238152503967285,236,47,129.97999572753906,5.16559362411499,998.1985473632812,-13.800390243530273,2913,-1.6100000143051147,8.059999465942383,-107,-107,14,-19.969999313354492,-557.3646240234375,0.0,
2016-11-06 19:02:19.900000,1478466139900000,23,5,-730,-30,-120,13,19,160,-365,77,22,-723,-30,-120,13,19,160,-365,-1.3994887921843935,-6.406224814078073,0.6827036077215438,0.05193919970779671,9.42861425765998,-123.64056246881272,1.1453267335891724,-267.64404296875,-120.3157958984375,-3.875120162963867,-13.715624809265137,-4.221077919006348,-226070911,-434092929,130680,120310,-400,-1367,446,23632,1421,-226070861,-434092712,126190,25394,121,200,3,10,21.605295181274414,14.243205070495605,236,41,131.00999450683594,3.8669254779815674,998.040771484375,-13.958202362060547,2912,-2.180000066757202,6.71999979019165,-108,-108,10,-21.170000076293945,-531.8414916992188,0.0,
2016-11-06 19:02:20.140000,1478466140140000,46,68,-725,-52,-127,11,10,163,-364,59,24,-703,-52,-127,11,10,163,-364,-2.249614797254083,-7.213343145656602,0.593829613128161,-0.34637063219898256,7.7684462798818785,-123.51440887484259,0.23046882450580597,-270.88067626953125,-121.24187469482422,-3.778709650039673,-13.648868560791016,-3.602743148803711,-226070993,-434093244,131610,121240,-392,-1366,415,23645,1417,-226070937,-434092979,126980,25419,121,200,3,10,21.25912857055664,14.175654411315918,236,38,131.8800048828125,4.246273040771484,997.9539794921875,-14.045000076293945,2912,-3.7899999618530273,4.920000076293945,-109,-109,7,-21.829999923706055,-527.3946533203125,0.0,
2016-11-06 19:02:20.380000,1478466140380000,16,-18,-803,-111,-125,9,1,168,-362,36,28,-704,-111,-126,9,1,168,-362,-3.8566863785283867,-7.297270802630426,0.4914057505210894,-1.0652377970590696,6.0047480022120165,-123.3866023750933,-0.6626323461532593,-274.1048278808594,-122.00884246826172,-3.6678590774536133,-13.635123252868652,-2.922065019607544,-226071072,-434093557,132370,122000,-386,-1364,369,23658,1413,-226070995,-434093246,127670,25444,121,200,3,10,21.171173095703125,14.13748550415039,236,32,132.58999633789062,4.115550518035889,997.9028930664062,-14.09609317779541,2912,-6.369999885559082,3.9499998092651367,-111,-111,4,-22.369998931884766,-521.2379150390625,0.0,
2016-11-06 19:02:20.620000,1478466140620000,75,14,-802,-320,-112,9,-11,186,-353,28,38,-719,-320,-112,9,-11,186,-353,-9.352220299340681,-7.155084193357332,0.3832365782441264,-2.573766610639603,4.26096100663321,-123.25020349736815,-1.533847689628601,-277.334228515625,-122.6051254272461,-3.639739751815796,-13.657365798950195,-2.2389535903930664,-226071150,-434093872,132970,122600,-374,-1360,262,23671,1407,-226071128,-434093779,128720,25475,121,200,3,10,21.128074645996094,14.104878425598145,236,26,133.1300048828125,3.0356335639953613,997.8304443359375,-14.1685152053833,2911,41.95000076293945,3.9800000190734863,0,0,117,0.0,-510.0755615234375,-0.43161457777023315,
2016-11-06 19:02:20.860000,1478466140860000,60,25,-923,1203,9,-86,-18,154,-368,86,6,-924,1203,9,-86,-18,154,-368,34.00428802820524,-4.2451503993651,-2.6809224603201707,-3.1803516554036153,2.756986221681783,-123.24942485580277,-2.39725399017334,-280.5643005371094,-123.0418472290039,-3.5885608196258545,-13.582951545715332,-1.589002251625061,-226071228,-434094186,133410,123040,-369,-1358,205,23687,1403,-226071205,-434094046,129070,25479,121,200,3,10,21.21891975402832,14.075027465820312,236,33,133.52000427246094,2.0206024646759033,997.7883911132812,-14.210546493530273,2911,41.89999771118164,4.639999866485596,2,1,118,-0.4399999976158142,-513.2650146484375,2.2505617141723633,
2016-11-06 19:02:21.100000,1478466141100000,131,2,-1059,1206,113,28,-13,5,-399,96,-92,-1061,1206,113,28,-13,5,-399,77.79651034460555,3.3150212146082874,-4.017551847634174,12.285950472401238,2.837097297013451,-124.28550991138034,-3.256840705871582,-283.7818908691406,-123.34154510498047,-3.534121036529541,-13.621088981628418,-1.1939104795455933,-226071305,-434094499,133710,123340,-367,-1354,148,23604,1404,-226071281,-434094313,129320,25476,121,200,3,10,21.18541717529297,14.031179428100586,235,39,133.7899932861328,1.8095779418945312,997.7830810546875,-14.215859413146973,2911,42.22999954223633,5.400000095367432,7,3,119,-0.7799999713897705,-531.996337890625,6.320070266723633,
2016-11-06 19:02:21.600000,1478466141600000,196,-15,-1341,289,310,304,17,-121,-380,173,-89,-1347,289,310,304,17,-121,-380,16.529085112187538,17.736394472520868,17.339420462865142,41.84514711989395,4.680761508495119,-115.60701691044878,-4.907416343688965,-291.6661376953125,-123.97881317138672,-1.802825689315796,-15.0693941116333,-1.2963790893554688,-226071453,-434095266,134340,123969,-316,-1412,97,24062,1491,-226071453,-434095152,129890,26073,121,200,3,10,21.602914810180664,14.91436767578125,244,50,134.52999877929688,1.3541864156723022,997.7088012695312,-14.290156364440918,2910,44.459999084472656,7.099999904632568,14,6,121,-1.3600000143051147,-560.29150390625,13.647241592407227,
2016-11-06 19:02:22.100000,1478466142100000,308,-132,-1583,85,419,272,68,-155,-361,221,-87,-1610,85,419,272,68,-155,-361,4.8283345757024145,24.010778706371124,15.513584539221089,47.42176435077758,6.6427418853177445,-102.07544910798055,-4.6135053634643555,-302.06256103515625,-124.90796661376953,3.5461184978485107,-17.55962562561035,-2.066826105117798,-226071427,-434096278,135270,124899,33,-1642,135,25736,1642,-226071472,-434095764,130360,27115,121,200,3,10,21.762638092041016,16.423315048217773,257,58,135.30999755859375,1.4703869819641113,997.6392211914062,-14.35976505279541,2910,47.96999740600586,8.389999389648438,19,10,121,-2.1399998664855957,-576.2637939453125,21.95068359375,
2016-11-06 19:02:22.600000,1478466142600000,260,-155,-1683,69,451,295,120,-181,-335,226,-93,-1653,69,451,295,120,-181,-335,3.9204410717885785,25.821521619496743,16.809179217218713,51.354344803155385,8.48513717571767,-87.17174411258095,-2.9661202430725098,-307.765625,-125.61149597167969,7.1515374183654785,-18.257741928100586,-2.610811471939087,-226071279,-434096833,135980,125610,433,-1790,199,26674,1946,-226071299,-434096793,131470,28978,121,200,3,10,22.44314956665039,19.469219207763672,272,60,136.49000549316406,2.3717641830444336,997.4808959960938,-14.518046379089355,2909,51.689998626708984,9.739999771118164,24,14,120,-2.93999981880188,-644.31494140625,30.952930450439453,
2016-11-06 19:02:23.100000,1478466143100000,293,-4,-1743,16,503,300,166,-210,-296,250,-99,-1744,16,503,300,166,-210,-296,0.8883789597640221,28.804198635696903,17.1362137973208,55.152442245870226,9.909938542244426,-70.81844074887286,3.944291591644287,-319.3446960449219,-127.43042755126953,14.94210147857666,-17.618223190307617,-3.3813929557800293,-226070659,-434097960,137800,127430,1142,-1837,286,28715,2164,-226070976,-434097480,132510,30187,121,200,3,10,22.89904022216797,21.644149780273438,289,65,137.99000549316406,3.3782269954681396,997.306640625,-14.692343711853027,2908,54.36000061035156,10.59999942779541,28,19,117,-3.0199999809265137,-689.904052734375,39.924346923828125,
2016-11-06 19:02:23.600000,1478466143600000,291,-19,-1872,-54,536,305,204,-235,-250,261,-100,-1809,-54,536,305,204,-235,-250,-3.1997397876929314,30.714455697482315,17.42599652568964,57.646776104340105,10.907123109177839,-53.26203371381287,9.298020362854004,-324.724365234375,-128.5128936767578,18.97795867919922,-16.025306701660156,-3.679340362548828,-226070178,-434098483,138880,128509,1399,-1798,310,29818,2507,-226070156,-434098509,134440,31980,121,200,3,10,23.0614013671875,25.070199966430664,306,67,139.75999450683594,2.959580421447754,997.107421875,-14.891562461853027,2907,55.36000061035156,11.329999923706055,30,25,111,-2.6399998664855957,-706.14013671875,47.8886604309082,
2016-11-06 19:02:24.100000,1478466144100000,246,-118,-1868,-141,524,303,227,-257,-204,247,-98,-1806,-141,524,303,227,-257,-204,-8.175954148785056,29.985373984718475,17.300975035574435,58.30017932110021,11.645674879225902,-35.34060770912907,23.755895614624023,-333.2961730957031,-130.93380737304688,26.24659538269043,-10.356106758117676,-4.125288486480713,-226068879,-434099317,141300,130929,2396,-1298,385,32113,2724,-226069374,-434099081,135910,33155,121,200,3,10,23.708274841308594,27.249990463256836,324,65,141.6999969482422,3.360280990600586,996.8971557617188,-15.10179615020752,2906,54.16999816894531,11.869999885559082,31,31,103,-1.7599999904632568,-770.8272705078125,53.80794906616211,
2016-11-06 19:02:24.600000,1478466144600000,101,-73,-1636,-241,454,298,233,-274,-173,196,-90,-1688,-241,454,298,233,-274,-173,-13.896057432431377,25.98854365036565,17.01864575113737,56.215721699628205,11.98034646459371,-18.56470005090478,32.523067474365234,-336.0155029296875,-132.2609405517578,28.762813568115234,-6.555209636688232,-4.386216163635254,-226068092,-434099582,142630,132260,2605,-1091,400,33226,2988,-226067924,-434099655,138350,34814,121,200,3,10,23.9908447265625,29.88749122619629,341,56,143.83999633789062,4.387230396270752,996.6477661132812,-15.351171493530273,2904,49.869998931884766,12.329999923706055,31,37,93,-0.5899999737739563,-799.08447265625,56.91146469116211,
2016-11-06 19:02:25.100000,1478466145100000,92,-100,-1526,-357,341,286,226,-282,-170,131,-76,-1487,-357,340,287,226,-282,-170,-20.533835050882992,19.489599872078298,16.32714373918694,50.63859220455682,11.98809531420709,-4.254583317495711,51.806549072265625,-337.724853515625,-135.0521240234375,31.10672378540039,1.340216040611267,-4.551576137542725,-226066360,-434099748,145420,135050,3029,-361,431,35204,3098,-226066856,-434099768,140070,35792,121,200,3,10,23.766998291015625,30.98025131225586,355,45,146.0399932861328,4.535064697265625,996.3756713867188,-15.62328052520752,2903,41.79999923706055,12.359999656677246,30,44,81,0.7599999904632568,-776.6996459960938,56.993675231933594,
2016-11-06 19:02:25.600000,1478466145600000,96,-42,-1368,-458,203,260,211,-274,-198,76,-52,-1256,-458,203,260,211,-274,-198,-26.3022627766808,11.626671585407633,14.83303302805748,41.16103195753089,11.602085465716527,6.833135969752789,71.61611938476562,-334.953125,-137.89735412597656,30.538888931274414,7.370137691497803,-4.4794416427612305,-226064580,-434099478,148260,137890,3110,533,444,683,3156,-226065158,-434099655,142730,972,121,200,3,10,23.423564910888672,31.563283920288086,6,35,148.25999450683594,4.014763832092285,996.0935668945312,-15.905390739440918,2901,30.219999313354492,12.199999809265137,28,51,69,2.0899999141693115,-742.3563232421875,54.486202239990234,
2016-11-06 19:02:26.100000,1478466146100000,22,4,-999,-508,88,211,196,-244,-248,41,-22,-1078,-508,87,211,196,-244,-248,-29.189875512465427,4.996442606649353,11.996616828970327,28.703815345465227,10.934722196066568,14.73520422857539,81.29572296142578,-332.3438415527344,-139.28184509277344,29.783449172973633,9.408720016479492,-4.24554967880249,-226063711,-434099225,149650,139280,3076,698,442,1222,3143,-226064070,-434099388,144500,1542,121,200,3,10,22.832887649536133,31.43214225769043,14,29,150.39999389648438,4.367580413818359,995.8809814453125,-16.11796760559082,2900,16.940000534057617,11.869999885559082,26,60,57,3.4099998474121094,-683.2887573242188,50.1597785949707,
2016-11-06 19:02:26.600000,1478466146600000,128,47,-1092,-462,17,137,183,-193,-297,39,6,-978,-462,17,137,183,-193,-297,-26.53395133106409,0.9566106819425984,7.77006759603611,15.661989181959834,10.238711405490282,19.866827804843517,99.8968505859375,-325.6964111328125,-141.88514709472656,28.21308135986328,11.614556312561035,-3.8150277137756348,-226062040,-434098578,152250,141879,2929,1036,419,1954,3085,-226062469,-434098776,147050,2096,121,200,3,10,22.051555633544922,30.85283851623535,19,29,152.41000366210938,4.4932074546813965,995.6134033203125,-16.38554573059082,2898,5.230000019073486,11.449999809265137,24,72,46,4.71999979019165,-605.1555786132812,44.774871826171875,
2016-11-06 19:02:27.100000,1478466147100000,90,-10,-872,-359,-10,58,174,-137,-332,45,28,-938,-359,-10,58,174,-137,-332,-20.670158796527275,-0.6585087298038315,3.2522291511342445,4.255926303441265,9.67904741244673,22.57022009342915,108.87665557861328,-321.96820068359375,-143.11691284179688,27.603981018066406,12.0538969039917,-3.6915202140808105,-226061233,-434098215,153480,143110,2837,1154,398,2166,3039,-226061458,-434098357,148640,2300,121,200,3,10,21.542184829711914,30.397611618041992,22,29,154.3000030517578,3.8404366970062256,995.3821411132812,-16.616796493530273,2897,-3.669999837875366,11.1899995803833,21,89,38,6.039999961853027,-554.218505859375,38.886417388916016,
2016-11-06 19:02:27.600000,1478466147600000,125,-49,-1027,1264,10,-55,173,-182,-310,110,-23,-958,1264,10,-55,173,-182,-310,72.38299803110183,0.5409412172289308,-3.296786317071646,12.309667450520461,9.438594017811015,22.420936063834766,126.38694763183594,-314.2989196777344,-145.42637634277344,26.8189754486084,12.24181842803955,-3.2527363300323486,-226059660,-434097469,155790,145420,2737,1217,359,2269,2975,-226059970,-434097670,150840,2416,121,200,3,10,20.872690200805664,29.756929397583008,22,45,156.05999755859375,3.568744659423828,995.1666259765625,-16.83234405517578,2896,59.959999084472656,11.010000228881836,97,92,282,4.309999942779541,-487.2690124511719,13.566010475158691,
2016-11-06 19:02:28.100000,1478466148100000,306,-74,-1097,848,292,301,168,-337,-132,198,-145,-1082,848,292,301,168,-337,-132,48.54340777099332,16.68411845351578,17.169662941233646,49.04038599538178,10.117441396776705,27.046157462207105,134.9675750732422,-310.3339538574219,-146.4929656982422,26.427410125732422,12.95433235168457,-3.0130181312561035,-226058889,-434097083,156860,146489,2695,1229,337,2278,2959,-226058998,-434097175,152190,2537,121,200,3,10,20.74225425720215,29.594085693359375,27,52,157.63999938964844,3.662748336791992,995.002685546875,-16.99625015258789,2895,60.32999801635742,11.09999942779541,104,95,276,2.7300000190734863,-474.2252197265625,26.81843376159668,
2016-11-06 19:02:28.600000,1478466148600000,289,-170,-1800,48,694,362,119,-380,-33,283,-104,-1850,49,693,362,119,-380,-33,2.7512712743371863,39.70291975842198,20.70061290248907,62.01498260688674,9.02287882284642,45.54111957413876,151.4300079345703,-300.8817443847656,-148.27264404296875,23.960662841796875,17.78705406188965,-2.2476747035980225,-226057410,-434096163,158640,148270,2591,1467,275,4024,2992,-226057605,-434096336,153920,3352,121,200,3,10,20.942934036254883,29.928970336914062,45,51,158.92999267578125,2.562274932861328,994.8134765625,-17.185468673706055,2894,60.53999710083008,11.699999809265137,111,98,269,1.4399999380111694,-494.29339599609375,39.228694915771484,
2016-11-06 19:02:29.100000,1478466149100000,276,-158,-2143,-193,780,336,60,-394,-18,294,-115,-2193,-193,780,336,60,-394,-18,-11.142818423282993,44.67046511535348,19.222940749144538,63.0615041915161,10.196089317522109,69.84457188644492,158.65782165527344,-294.6328125,-149.0720977783203,20.440874099731445,21.498659133911133,-2.3605401515960693,-226056761,-434095555,159440,149069,2333,1881,247,5500,2979,-226056766,-434095611,154920,4525,121,200,3,10,21.380542755126953,29.79071044921875,69,50,160.25999450683594,1.9479941129684448,994.6614379882812,-17.337499618530273,2893,58.15999984741211,12.429999351501465,118,100,260,0.10999999940395355,-538.0540771484375,49.0892219543457,
2016-11-06 19:02:29.600000,1478466149600000,180,-102,-2111,-314,694,327,7,-395,-57,262,-106,-2093,-314,694,326,7,-395,-57,-15.83276269423037,41.99074284733653,18.98006092980618,61.33951104891833,11.25745546453884,86.20150891079146,169.9834442138672,-275.20379638671875,-151.54676818847656,6.936038017272949,25.67841339111328,-3.46113920211792,-226055744,-434093664,161910,151540,1096,2557,329,9348,2782,-226055888,-434094238,156650,6677,121,200,3,10,21.55377960205078,28.68922996520996,86,50,161.33999633789062,3.7473390102386475,994.4822998046875,-17.516639709472656,2892,52.78999710083008,13.019999504089355,124,102,249,-1.5399999618530273,-550.653076171875,54.834835052490234,
2016-11-06 19:02:29.840000,1478466149840000,162,-35,-2020,-363,627,317,-8,-390,-84,243,-101,-1987,-362,627,317,-8,-390,-84,-19.19084569023465,38.59101618796268,18.484853431960037,59.242677124670266,12.120285087856224,96.98812613866912,171.2390594482422,-269.1068420410156,-152.5000457763672,3.041954755783081,25.041912078857422,-3.9213433265686035,-226055631,-434093071,162870,152500,741,2575,360,10370,2679,-226055717,-434093704,157340,7394,121,200,3,10,21.50653076171875,27.823835372924805,96,50,162.22000122070312,2.8672935962677,994.419189453125,-17.57976531982422,2891,48.29999923706055,13.059999465942383,127,102,244,-2.3299999237060547,-540.55517578125,55.92617416381836,
2016-11-06 19:02:30.080000,1478466150080000,228,-56,-1943,-412,536,309,-20,-381,-115,218,-92,-1841,-412,536,309,-20,-381,-115,-21.76108173340359,34.325139579561174,17.938634666297652,56.42560658263353,13.068233382383953,106.89159307667497,171.61782836914062,-263.2287902832031,-153.55967712402344,-0.2914321720600128,23.80026626586914,-4.37098503112793,-226055597,-434092499,163920,153550,406,2534,392,11289,2566,-226055621,-434093246,158090,8087,121,200,3,10,21.376445770263672,26.794973373413086,106,50,163.2100067138672,3.197951555252075,994.3053588867188,-17.693593978881836,2891,44.84000015258789,13.019999504089355,130,103,240,-3.18999981880188,-552.2138671875,56.39466857910156,
2016-11-06 19:02:30.320000,1478466150320000,225,-52,-1652,-424,432,299,-33,-361,-166,176,-81,-1652,-424,432,299,-33,-361,-166,-24.094680750135563,28.70046855277192,17.46313909439617,52.90715757510652,13.955530450855617,115.68493570850029,171.26792907714844,-257.6828918457031,-154.70603942871094,-2.963175058364868,22.283084869384766,-4.6731462478637695,-226055628,-434091959,165070,154700,106,2443,427,12084,2446,-226055563,-434092750,158920,8749,121,200,3,10,21.513887405395508,25.664772033691406,115,46,164.3000030517578,4.0796613693237305,994.1531982421875,-17.845781326293945,2890,39.55999755859375,12.9399995803833,133,103,233,-4.599999904632568,-546.4986572265625,56.10850524902344,
2016-11-06 19:02:30.560000,1478466150560000,155,-210,-1456,-434,329,289,-39,-343,-200,133,-72,-1463,-434,329,288,-39,-343,-200,-24.72278153111535,22.778397429141968,16.896836157479363,48.89968751357411,14.611321672504282,123.21023323034524,170.3554229736328,-252.52297973632812,-155.9256591796875,-4.866898059844971,20.575159072875977,-4.956104278564453,-226055710,-434091457,166290,155920,-145,2321,460,12755,2325,-226055582,-434092253,159800,9359,121,200,3,10,21.36172866821289,23.25587272644043,123,42,165.47000122070312,5.052828788757324,994.0509643554688,-17.947967529296875,2889,35.459999084472656,12.09999942779541,134,103,228,-5.609999656677246,-534.5767822265625,55.38849639892578,
2016-11-06 19:02:30.800000,1478466150800000,108,-30,-1200,-455,196,279,-49,-310,-247,63,-58,-1231,-455,196,279,-49,-310,-247,-25.10484523781294,16.39767227255649,16.271668942748096,44.57783067473518,14.921859638213498,129.50912930557936,169.0438995361328,-247.76307678222656,-157.189453125,-6.2231125831604,18.964712142944336,-4.960287570953369,-226055828,-434090994,167550,157180,-502,2035,500,13294,2096,-226055697,-434091414,161740,10388,121,200,3,10,21.445781707763672,22.076013565063477,129,31,166.7100067138672,4.494876384735107,993.8609008789062,-18.138046264648438,2888,30.94999885559082,10.65999984741211,134,103,222,-7.179999828338623,-506.8197326660156,53.78197479248047,
